ville,latitude,longitude
Paris,48.8566,2.3522
New York,40.7128,-74.0060
Londres,51.5074,-0.1278
Pékin,39.9042,116.4074
Moscou,55.7558,37.6173
Sydney,-33.8688,151.2093
São Paulo,-23.5505,-46.6333
Le Caire,30.0444,31.2357
Mexico,19.4326,-99.1332